{
    "airportPianos": [
        {
            "id": "EVN",
            "name": "Zvartnots Yerevan International Airport",
            "code": "EVN",
            "latitude": 40.15240000000006,
            "longitude": 44.40008000000006,
            "address": "Մալաթիա-Սեբաստիա, Yerevan, Erivan",
            "country": "ARM",
            "city": "Yerevan",
            "status": "Open"
        },
        {
            "id": "AMS",
            "name": "Schiphol International Airport",
            "code": "AMS",
            "latitude": 52.31094500858536,
            "longitude": 4.762637615203858,
            "address": "Gemeente Haarlemmermeer",
            "country": "NLD",
            "city": "Amsterdam",
            "status": "Open"
        },
        {
            "id": "CRL",
            "name": "Brussels South Charleroi Airport",
            "code": "CRL",
            "latitude": 50.469520000000045,
            "longitude": 4.46935000000002,
            "address": "Rue des Frères Wright 8, 6041, Charleroi, Gosselies",
            "country": "BEL",
            "city": "Charleroi",
            "status": "Open"
        },
        {
            "id": "BRU",
            "name": "Zaventem Luchthaven",
            "code": "BRU",
            "latitude": 50.89786000000004,
            "longitude": 4.4810900000000515,
            "address": "1930, Zaventem",
            "country": "BEL",
            "city": "Zaventem",
            "status": "Open"
        },
        {
            "id": "BDA",
            "name": "L. F. Wade International Airport",
            "code": "BDA",
            "latitude": 40.78839000000005,
            "longitude": -111.97776999999996,
            "address": "3 Cahow Way, St George's, DD 03",
            "country": "BMU",
            "city": "St George's",
            "status": "Open"
        },
        {
            "id": "SLC",
            "name": "Salt Lake City International Airport",
            "code": "SLC",
            "latitude": 40.78839000000005,
            "longitude": -111.97776999999996,
            "address": "Salt Lake City, UT",
            "country": "USA",
            "city": "Salt Lake City",
            "status": "Open"
        },
        {
            "id": "YYC",
            "name": "Calgary International Airport",
            "code": "YYC",
            "latitude": 51.13420000000008,
            "longitude": -114.00762999999995,
            "address": "2000 Airport Rd NE, Calgary, Alberta, T2E",
            "country": "CAN",
            "city": "Calgary",
            "status": "Open"
        },
        {
            "id": "YVR",
            "name": "Vancouver International Airport",
            "code": "YVR",
            "latitude": 49.19536000000005,
            "longitude": -123.17789999999997,
            "address": "3211 Grant McConachie Way, Richmond, British Columbia, V7B",
            "country": "CAN",
            "city": "Richmond",
            "status": "Open"
        },
        {
            "id": "MEL",
            "name": "Melbourne Airport",
            "code": "MEL",
            "latitude": -37.66952220715411,
            "longitude": 144.84879421469407,
            "address": "Arrival Dr, Melbourne Airport, Melbourne, Victoria, 3045",
            "country": "AUS",
            "city": "Melbourne Airport",
            "status": "Open"
        },
        {
            "id": "CAN",
            "name": "Guangzhou Baiyun International Airport",
            "code": "CAN",
            "latitude": 23.39244000000008,
            "longitude": 113.29879000000005,
            "address": "",
            "country": "CHN",
            "city": "Guangzhou",
            "status": "Open"
        },
        {
            "id": "BRQ",
            "name": "Brno airport",
            "code": "BRQ",
            "latitude": 49.15485000000007,
            "longitude": 16.691350000000057,
            "address": "",
            "country": "CZE",
            "city": "Brno",
            "status": "Open"
        },
        {
            "id": "PRG",
            "name": "Vaclav Havel Airport Prague",
            "code": "PRG",
            "latitude": 50.10898000000003,
            "longitude": 14.271460000000047,
            "address": "Aviatická, 161 00, Praha 6, Prague",
            "country": "CZE",
            "city": "Praha 6",
            "status": "Open"
        },
        {
            "id": "OUL",
            "name": "Oulu Airport",
            "code": "OUL",
            "latitude": 64.92883000000006,
            "longitude": 25.372120000000052,
            "address": "Lentokentäntie 720, 90460, Oulunsalo",
            "country": "FIN",
            "city": "Oulunsalo",
            "status": "Open"
        },
        {
            "id": "CDG",
            "name": "Paris Charles de Gaulle Airport",
            "code": "CDG",
            "latitude": 49.00601000000006,
            "longitude": 2.542660000000069,
            "address": "95700, Roissy-en-France, Val-d'Oise, Ile-de-France",
            "country": "FRA",
            "city": "Paris",
            "status": "Open"
        },
        {
            "id": "TLS",
            "name": "Toulouse-Blagnac Airport",
            "code": "TLS",
            "latitude": 43.629080000000044,
            "longitude": 1.3638200000000325,
            "address": "Département de la Haute-Garonne, Midi-Pyrénées",
            "country": "FRA",
            "city": "Toulouse",
            "status": "Open"
        },
        {
            "id": "FRA",
            "name": "Frankfurt International Airport",
            "code": "FRA",
            "latitude": 50.05154776912038,
            "longitude": 8.57194822398217,
            "address": "Hessen",
            "country": "DEU",
            "city": "Frankfurt",
            "status": "Open"
        },
        {
            "id": "MUC",
            "name": "Munich International Airport",
            "code": "MUC",
            "latitude": 48.35378000000003,
            "longitude": 11.786090000000058,
            "address": "Schwaig, Bayern",
            "country": "DEU",
            "city": "Munich",
            "status": "Open"
        },
        {
            "id": "BUD",
            "name": "Budapest Ferenc Liszt International Airport",
            "code": "BUD",
            "latitude": 47.432840000000056,
            "longitude": 19.26096000000007,
            "address": "2220, Vecsés, Vecsési Járás, Pest",
            "country": "HUN",
            "city": "Budapest",
            "status": "Open"
        },
        {
            "id": "ORK",
            "name": "Cork Airport",
            "code": "ORK",
            "latitude": 51.850040000000035,
            "longitude": -8.484999999999957,
            "address": "Cork",
            "country": "IRL",
            "city": "Cork",
            "status": "Open"
        },
        {
            "id": "AHO",
            "name": "Alghero Fertilia Airport",
            "code": "AHO",
            "latitude": 40.631170000000054,
            "longitude": 8.296740000000057,
            "address": "07041, Alghero, Sassari",
            "country": "ITA",
            "city": "Alghero",
            "status": "Open"
        },
        {
            "id": "PMO",
            "name": "Palermo Airport",
            "code": "PMO",
            "latitude": 38.17596000000003,
            "longitude": 13.091020000000071,
            "address": "Provincia di Palermo",
            "country": "ITA",
            "city": "Palermo",
            "status": "Open"
        },
        {
            "id": "FCO",
            "name": "Leonardo da Vinci International Airport",
            "code": "FCO",
            "latitude": 41.79595000000006,
            "longitude": 12.258680000000027,
            "address": "Provincia di Roma",
            "country": "ITA",
            "city": "Rome",
            "status": "Open"
        },
        {
            "id": "AMM",
            "name": "Queen Alia International Airport",
            "code": "AMM",
            "latitude": 31.72063000000003,
            "longitude": 35.97770000000003,
            "address": "Al Jezah, Amman, Amman Governorate",
            "country": "JOR",
            "city": "Amman",
            "status": "Open"
        },
        {
            "id": "MLA",
            "name": "Malta International Airport",
            "code": "MLA",
            "latitude": 35.84947000000005,
            "longitude": 14.495980000000031,
            "address": "Triq il-Ajruport Internazzjonali, Luqa, Malta Xlokk, LQA",
            "country": "MLT",
            "city": "Luqa",
            "status": "Open"
        },
        {
            "id": "CHC",
            "name": "Christchurch International Airport",
            "code": "CHC",
            "latitude": -43.48933999999997,
            "longitude": 172.54045000000008,
            "address": "Durey Rd, Christchurch Airport, Christchurch, 8053",
            "country": "NZL",
            "city": "Christchurch",
            "status": "Open"
        },
        {
            "id": "WAW",
            "name": "Warsaw Chopin Airport",
            "code": "WAW",
            "latitude": 52.17149000000006,
            "longitude": 20.972690000000057,
            "address": "634, 02-143, Włochy, Warsaw, Woj. Mazowieckie",
            "country": "POL",
            "city": "Warsaw",
            "status": "Open"
        },
        {
            "id": "TAE",
            "name": "Daegu Airport",
            "code": "TAE",
            "latitude": 35.87028000000004,
            "longitude": 128.59111000000007,
            "address": "",
            "country": "KOR",
            "city": "Daegu",
            "status": "Open"
        },
        {
            "id": "ICN",
            "name": "Incheon International Airport",
            "code": "ICN",
            "latitude": 37.470382789344306,
            "longitude": 126.43420196982348,
            "address": "",
            "country": "KOR",
            "city": "Incheon",
            "status": "Open"
        },
        {
            "id": "DUR",
            "name": "King Shaka International Airport",
            "code": "DUR",
            "latitude": -29.618739999999946,
            "longitude": 31.105120000000056,
            "address": "Boulevard Rd, La Mercy, eThekwini, Kwazulu Natal, 4399",
            "country": "ZAF",
            "city": "La Mercy",
            "status": "Open"
        },
        {
            "id": "LHR",
            "name": "London Heathrow Airport",
            "code": "LHR",
            "latitude": 51.47126610438494,
            "longitude": -0.4533619223032171,
            "address": "Hillingdon, Greater London, England",
            "country": "GBR",
            "city": "London",
            "status": "Open"
        },
        {
            "id": "MAN",
            "name": "Manchester Airport",
            "code": "MAN",
            "latitude": 53.353744,
            "longitude": -2.27495,
            "address": "Manchester, City and Borough of Manchester, England",
            "country": "GBR",
            "city": "Manchester",
            "status": "Open"
        },
        {
            "id": "ATL",
            "name": "Hartsfield-Jackson Atlanta Int'l",
            "code": "ATL",
            "latitude": 33.64211000000006,
            "longitude": -84.42125999999996,
            "address": "6000 N Terminal Pkwy, Atlanta, GA, 30320",
            "country": "USA",
            "city": "Atlanta",
            "status": "Open"
        },
        {
            "id": "CHS",
            "name": "Charleston International Airport",
            "code": "CHS",
            "latitude": 32.898510000000044,
            "longitude": -80.04036999999994,
            "address": "North Charleston, SC",
            "country": "USA",
            "city": "North Charleston",
            "status": "Open"
        },
        {
            "id": "CLT",
            "name": "Charlotte Douglas Airport",
            "code": "CLT",
            "latitude": 35.22484000000003,
            "longitude": -80.95600999999994,
            "address": "Airport Overlook Dr, Charlotte, NC, 28214",
            "country": "USA",
            "city": "Charlotte",
            "status": "Open"
        },
        {
            "id": "ORD",
            "name": "Chicago O'Hare Int'l Airport",
            "code": "ORD",
            "latitude": 41.97981000000004,
            "longitude": -87.88203999999996,
            "address": "10000 W O'Hare Ave, Chicago, IL, 60666",
            "country": "USA",
            "city": "Chicago",
            "status": "Open"
        },
        {
            "id": "DFW",
            "name": "Dallas/Fort Worth Int'l Airport",
            "code": "DFW",
            "latitude": 32.889850000000024,
            "longitude": -97.03982999999994,
            "address": "2400 Aviation Dr, Dallas, TX, 75261",
            "country": "USA",
            "city": "Dallas",
            "status": "Open"
        },
        {
            "id": "DTW",
            "name": "Detroit Metropolitan Airport",
            "code": "DTW",
            "latitude": 42.230540000000076,
            "longitude": -83.34299999999996,
            "address": "11050 Rogell Dr, Detroit, MI, 48242",
            "country": "USA",
            "city": "Detroit",
            "status": "Open"
        },
        {
            "id": "HSV",
            "name": "Huntsville Airport North",
            "code": "HSV",
            "latitude": 34.857030000000066,
            "longitude": -86.55609999999996,
            "address": "Meridianville, AL",
            "country": "USA",
            "city": "Meridianville",
            "status": "Open"
        },
        {
            "id": "MSP",
            "name": "Minneapolis-Saint Paul International Airport",
            "code": "MSP",
            "latitude": 44.88352000000003,
            "longitude": -93.21130999999997,
            "address": "MN",
            "country": "USA",
            "city": "Minneapolis",
            "status": "Open"
        },
        {
            "id": "PIT",
            "name": "Pittsburgh International Airport",
            "code": "PIT",
            "latitude": 40.49608000000006,
            "longitude": -80.25546999999995,
            "address": "PA",
            "country": "USA",
            "city": "Pittsburgh",
            "status": "Open"
        },
        {
            "id": "PDX",
            "name": "Portland International Airport",
            "code": "PDX",
            "latitude": 45.58903000000004,
            "longitude": -122.59346,
            "address": "Portland, OR",
            "country": "USA",
            "city": "Portland",
            "status": "Open"
        },
        {
            "id": "RIC",
            "name": "Richmond International Airport",
            "code": "RIC",
            "latitude": 37.5062150589685,
            "longitude": -77.33576489022735,
            "address": "Richmond, VA, 23250",
            "country": "USA",
            "city": "Richmond",
            "status": "Open"
        },
        {
            "id": "SAN",
            "name": "San Diego Int'l Airport",
            "code": "SAN",
            "latitude": 32.73037000000005,
            "longitude": -117.19531999999998,
            "address": "3225 N Harbor Dr, San Diego, CA, 92101",
            "country": "USA",
            "city": "San Diego",
            "status": "Open"
        },
        {
            "id": "SFO",
            "name": "San Francisco International Airport",
            "code": "SFO",
            "latitude": 37.61882000000003,
            "longitude": -122.37579999999997,
            "address": "CA",
            "country": "USA",
            "city": "San Francisco",
            "status": "Open"
        },
        {
            "id": "SJC",
            "name": "San Jose Int'l Airport",
            "code": "SJC",
            "latitude": 37.35558000000003,
            "longitude": -121.91384999999997,
            "address": "Airport Blvd, San Jose, CA, 95110",
            "country": "USA",
            "city": "San Jose",
            "status": "Open"
        },
        {
            "id": "LYH",
            "name": "Lynchburg Regional Airport",
            "code": "LYH",
            "latitude": 37.330820000000074,
            "longitude": -79.19442999999995,
            "address": "350 Terminal Dr, Lynchburg, VA, 24502",
            "country": "USA",
            "city": "Lynchburg",
            "status": "Open"
        },
        {
            "id": "GCI",
            "name": "Guernsey Airport",
            "code": "GCI",
            "latitude": 49.431760000000054,
            "longitude": -2.596649999999954,
            "address": "Forest, Guernsey, GY8 0",
            "country": "GGY",
            "city": "Forest",
            "status": "Open"
        },
        {
            "id": "TTJ",
            "name": "Tottori Airport",
            "code": "TTJ",
            "latitude": 35.52731717700004,
            "longitude": 134.167660941,
            "address": "Tottori",
            "country": "JPN",
            "city": "Tottori",
            "status": "Open"
        },
        {
            "id": "SHM",
            "name": "Nanki Shirahama Airport",
            "code": "SHM",
            "latitude": 33.664102359000026,
            "longitude": 135.36277075600003,
            "address": "Shirahama, Nishimuro, Wakayama",
            "country": "JPN",
            "city": "Shirahama",
            "status": "Open"
        },
        {
            "id": "SNA",
            "name": "John Wayne Airport",
            "code": "SNA",
            "latitude": 33.68455000000006,
            "longitude": -117.86202999999995,
            "address": "18601 Airport Way, Santa Ana, CA, 92707",
            "country": "USA",
            "city": "Santa Ana",
            "status": "Open"
        },
        {
            "id": "DUB",
            "name": "Dublin Airport",
            "code": "DUB",
            "latitude": 53.428153407548066,
            "longitude": -6.2428755009213255,
            "address": "",
            "country": "IRL",
            "city": "Dublin",
            "status": "Open"
        },
        {
            "id": "DOH",
            "name": "Doha International Airport",
            "code": "DOH",
            "latitude": 25.25720000000007,
            "longitude": 51.58991000000003,
            "address": "",
            "country": "QAT",
            "city": "Doha",
            "status": "Open"
        }
    ]
}